[{"name":"Walter, Murazik and Simonis","location":"Jelcz","established":"2025-10-24","contactEmail":"lgreenrodd0@storify.com","phoneNumber":"744-857-5667"},
{"name":"Kutch-Ziemann","location":"Setono","established":"2026-02-01","contactEmail":"eburbidge1@gov.uk","phoneNumber":"945-579-4687"},
{"name":"Borer-Bashirian","location":"Oullins","established":"2024-05-19","contactEmail":"mgajewski2@mail.ru","phoneNumber":"613-602-0762"},
{"name":"Wyman, Champlin and Watsica","location":"Sulitair","established":"2024-12-21","contactEmail":"jbengtson3@unesco.org","phoneNumber":"876-771-5619"},
{"name":"Stamm, Bashirian and Beier","location":"Ishigaki","established":"2025-10-03","contactEmail":"ypayton4@thetimes.co.uk","phoneNumber":"632-326-8207"},
{"name":"Bechtelar Inc","location":"Nanshan","established":"2024-10-08","contactEmail":"tlohde5@infoseek.co.jp","phoneNumber":"390-552-8794"},
{"name":"Christiansen-Rolfson","location":"Lukou","established":"2025-05-01","contactEmail":"kskellorne6@fastcompany.com","phoneNumber":"532-704-0575"},
{"name":"Cremin, Waters and Graham","location":"Abilay","established":"2025-11-06","contactEmail":"csherman7@google.co.jp","phoneNumber":"857-887-8689"},
{"name":"Schaefer, Fadel and Kessler","location":"Bah√≠a Honda","established":"2024-11-18","contactEmail":"drickert8@discovery.com","phoneNumber":"189-347-4526"},
{"name":"Parisian, Berge and Ortiz","location":"Vostochnyy","established":"2024-10-31","contactEmail":"ckarlolak9@abc.net.au","phoneNumber":"803-699-4615"},
{"name":"Leffler LLC","location":"Vesoul","established":"2024-10-24","contactEmail":"pmaciana@sitemeter.com","phoneNumber":"833-471-7576"},
{"name":"Krajcik, Towne and Prosacco","location":"Taling","established":"2024-09-26","contactEmail":"sdunseathb@icq.com","phoneNumber":"418-748-7610"},
{"name":"Pollich, Koelpin and Kutch","location":"Tuusula","established":"2024-08-15","contactEmail":"kpeegremc@virginia.edu","phoneNumber":"891-415-3877"},
{"name":"Hammes LLC","location":"Noshiro","established":"2024-06-13","contactEmail":"fpieterd@hc360.com","phoneNumber":"253-130-2819"},
{"name":"Kessler LLC","location":"Babakanbungur","established":"2025-02-25","contactEmail":"imusslewhitee@diigo.com","phoneNumber":"778-594-6046"},
{"name":"Hoeger-Kling","location":"Wahang Dua","established":"2024-09-02","contactEmail":"lcurryf@yahoo.com","phoneNumber":"231-518-9008"},
{"name":"Pfeffer, Corkery and Purdy","location":"Pantaibesar","established":"2024-02-18","contactEmail":"drobertaccig@ted.com","phoneNumber":"963-785-5611"},
{"name":"Reinger Group","location":"Oetua","established":"2025-12-01","contactEmail":"bdumberrillh@imageshack.us","phoneNumber":"885-280-7893"},
{"name":"Champlin LLC","location":"Karobokan","established":"2024-11-21","contactEmail":"bribeiroi@epa.gov","phoneNumber":"610-114-1260"},
{"name":"Cremin LLC","location":"Gose","established":"2024-08-29","contactEmail":"cdevinj@yelp.com","phoneNumber":"585-846-8326"}]